City_ID,City,Cloudiness,Country,Date,Humidity,Lat,Lng,Max Temp,Wind Speed
0,Ushuaia,100,AR,1713758915,96,-54.8,-68.3,33.98,4.68
1,Edinburgh of the Seven Seas,45,SH,1713758915,89,-37.0676,-12.3116,63.75,22.41
2,Xiuyan,74,CN,1713758915,55,40.2928,123.2744,67.03,11.41
3,Ribeira Grande,100,PT,1713758916,76,38.5167,-28.7,58.75,9.33
4,Sim,100,RU,1713758917,64,54.993,57.6982,66.36,3.58
5,Quesnel,100,CA,1713758917,38,52.9999,-122.5029,44.89,8.95
6,Port-aux-Français,9,TF,1713758918,74,-49.35,70.2167,41.34,27.6
7,Tamanghasset,100,DZ,1713758918,11,22.785,5.5228,72.27,9.62
8,Albany,2,US,1713758762,70,42.6001,-73.9662,35.74,8.7
9,Saint Paul Harbor,97,US,1713758919,86,57.79,-152.4072,38.68,4.25
10,San Patricio,15,US,1713758920,71,28.017,-97.5169,62.37,9.37
11,Acapulco de Juárez,0,MX,1713758920,69,16.8634,-99.8901,73.06,2.06
12,Olonkinbyen,100,SJ,1713758921,84,70.9221,-8.7187,22.68,36.69
13,Puerto Ayora,57,EC,1713758921,89,-0.7393,-90.3518,76.23,7.14
14,Powell River,24,CA,1713758922,69,49.8496,-124.5361,48.56,5.37
15,Grytviken,100,GS,1713758923,86,-54.2811,-36.5092,37.02,9.51
16,West Island,59,CC,1713758923,82,-12.1568,96.8225,80.76,22.97
17,La Carlota,40,PH,1713758924,63,10.4233,122.9208,89.22,13.11
18,Tucuruí,100,BR,1713758924,99,-3.7661,-49.6725,74.39,0.63
19,Chyorny Yar,3,RU,1713758925,64,48.0624,46.1091,63.45,18.61
20,Thompson,100,CA,1713758925,97,55.7435,-97.8558,30.61,3.8
21,Ilulissat,100,GL,1713758926,91,69.2167,-51.1,27.64,4.47
22,Peace River,100,CA,1713758926,37,56.2501,-117.286,52.16,12.15
23,Qaqortoq,100,GL,1713758927,88,60.7167,-46.0333,30.04,4.32
24,Plouzané,8,FR,1713758927,75,48.3833,-4.6167,44.53,8.32
25,Klyuchi,44,RU,1713758928,46,52.2667,79.1667,62.15,15.57
26,Adamstown,34,PN,1713758928,74,-25.066,-130.1015,72.09,23.94
27,Mando,85,NG,1713758929,78,10.7167,6.5667,76.96,4.23
28,Zakamensk,35,RU,1713758929,34,50.3741,103.2863,44.58,9.66
29,Knyaze-Volkonskoye,92,RU,1713758929,50,48.4642,135.4567,53.87,12.01
30,Caucayá,98,CO,1713758930,99,-0.1934,-74.7819,74.07,2.82
31,Kavieng,51,PG,1713758930,65,-2.5744,150.7967,86.65,8.5
32,New Norfolk,31,AU,1713758931,42,-42.7826,147.0587,70.14,3.78
33,Porto-Novo,100,BJ,1713758931,86,6.4965,2.6036,80.74,4.7
34,Iskateley,100,RU,1713758932,96,67.6803,53.1512,7.0,3.65
35,Tangalle,100,LK,1713758933,60,6.024,80.7911,88.95,3.24
36,Atafu Village,21,TK,1713758933,76,-8.5421,-172.5159,85.26,9.69
37,Stanley,100,GB,1713758934,96,54.868,-1.6985,38.66,3.4
38,Invercargill,15,NZ,1713758934,66,-46.4,168.35,51.15,9.17
39,St. John's,73,CA,1713758935,92,47.5649,-52.7093,35.78,3.4
40,Constanța,100,RO,1713758935,86,44.1833,28.65,53.29,21.54
41,Pacific Grove,18,US,1713758756,90,36.6177,-121.9166,53.13,1.86
42,Selkirk,41,CA,1713758936,48,50.1436,-96.8845,46.85,6.73
43,Waitangi,49,NZ,1713758936,84,-43.9535,-176.5597,55.45,31.34
44,Bilibino,25,RU,1713758937,64,68.0546,166.4372,22.59,2.71
45,Blackmans Bay,10,AU,1713758673,55,-43.0167,147.3167,63.77,3.67
46,Muhafazat Ma'rib,98,YE,1713758938,47,15.4591,45.3253,79.39,3.71
47,Beyneu,3,KZ,1713758939,29,45.3167,55.2,73.27,18.7
48,Quiruvilca,100,PE,1713758939,91,-7.9667,-78.2,40.19,1.9
49,Geraldton,7,AU,1713758940,54,-28.7667,114.6,74.53,22.08
50,Hawaiian Paradise Park,1,US,1713758940,75,19.5933,-154.9731,73.15,12.24
51,Ubinskoye,94,RU,1713758941,74,55.3068,79.6802,40.78,14.54
52,Cartagena del Chairá,76,CO,1713758941,99,1.3349,-74.8429,72.95,1.72
53,Pisco,20,PE,1713758942,89,-13.7,-76.2167,68.58,1.23
54,Codrington,0,AU,1713758943,31,-38.2667,141.9667,70.39,8.84
55,Paracuru,100,BR,1713758943,90,-3.41,-39.0306,77.41,5.21
56,Gadzhiyevo,62,RU,1713758944,89,69.2551,33.3362,9.19,11.43
57,Bengkulu,76,ID,1713758944,67,-3.8004,102.2655,86.63,4.7
58,Fale old settlement,63,TK,1713758945,75,-9.3852,-171.2468,85.8,9.26
59,Mashava,0,ZW,1713758945,65,-20.0367,30.4823,56.73,2.39
60,Avesta,86,SE,1713758945,81,60.1455,16.1679,25.65,8.77
61,Leh,67,IN,1713758946,68,34.1667,77.5833,28.08,3.91
62,Punta del Este,100,UY,1713758946,76,-34.9667,-54.95,64.02,22.46
63,Port Alfred,100,ZA,1713758947,93,-33.5906,26.891,72.07,20.02
64,Lompoc,0,US,1713758943,94,34.6391,-120.4579,53.58,5.93
65,Lebu,100,CL,1713758948,97,-37.6167,-73.65,53.58,5.17
66,Lunsar,98,SL,1713758948,87,8.6833,-12.5333,77.99,2.42
67,Carnarvon,0,AU,1713758949,37,-24.8667,113.6333,81.97,16.71
68,Haiku-Pauwela,38,US,1713758949,76,20.9219,-156.3051,71.51,14.61
69,Naryan-Mar,96,RU,1713758950,96,67.6713,53.087,7.2,3.94
70,Utrik,95,MH,1713758950,78,11.2278,169.8474,81.34,16.8
71,Wailua Homesteads,42,US,1713758951,70,22.0669,-159.378,71.78,13.89
72,Kailua-Kona,30,US,1713758951,73,19.6406,-155.9956,75.92,3.42
73,Cooper’s Town,18,BS,1713758952,76,26.8667,-77.5167,76.26,19.08
74,Kapaa,32,US,1713758952,71,22.0752,-159.319,72.97,15.61
75,Viedma,99,AR,1713758953,76,-40.8135,-62.9967,51.15,6.13
76,Mtwara,83,TZ,1713758953,93,-10.2667,40.1833,75.34,10.92
77,Kismayo,100,SO,1713758954,92,-0.3582,42.5454,78.03,7.09
78,Yellowknife,81,CA,1713758896,92,62.456,-114.3525,33.51,9.17
79,Suva,87,FJ,1713758955,76,-18.1416,178.4415,84.45,11.81
80,Ondjiva,0,AO,1713758955,50,-17.0667,15.7333,63.77,6.53
81,Talnakh,99,RU,1713758956,88,69.4865,88.3972,8.4,4.88
82,Isafjordur,90,IS,1713758956,87,66.0755,-23.124,34.79,9.62
83,Port Elizabeth,100,ZA,1713758956,95,-33.918,25.5701,69.44,10.94
84,Berwick-Upon-Tweed,100,GB,1713758957,94,55.7833,-2.0,44.26,1.92
85,Newman,19,US,1713758957,63,37.3138,-121.0208,67.64,3.71
86,Isangel,90,VU,1713758958,79,-19.55,169.2667,82.42,9.55
87,Puerto Eldorado,0,AR,1713758958,85,-26.4084,-54.6946,63.57,2.19
88,Kyshtovka,77,RU,1713758959,69,56.555,76.6271,40.78,12.33
89,Puerto Natales,46,CL,1713758959,91,-51.7236,-72.4875,34.7,4.56
90,Kibre Mengist,100,ET,1713758960,96,5.8833,38.9833,59.36,1.79
91,Papatowai,21,NZ,1713758960,63,-46.5619,169.4708,50.7,14.94
92,Maalahti,23,FI,1713758961,81,62.9423,21.5731,22.78,6.64
93,Vila Franca do Campo,100,PT,1713758961,93,37.7167,-25.4333,61.43,2.15
94,College,84,US,1713758962,89,64.8569,-147.8028,41.49,3.15
95,Paphos,11,CY,1713758962,63,34.7667,32.4167,63.21,1.74
96,Sidon,20,LB,1713758963,61,33.5631,35.3689,63.52,4.63
97,Hamilton,79,US,1713758963,65,39.1834,-84.5333,41.5,2.66
98,Longyearbyen,98,SJ,1713758791,93,78.2186,15.6401,32.0,11.1
99,Kavaratti,37,IN,1713758964,70,10.5669,72.642,86.47,5.93
100,Tromsø,26,NO,1713758964,84,69.6496,18.957,16.27,12.82
101,Berezovyy,100,RU,1713758965,60,51.6667,135.7,45.93,2.75
102,Lata,55,PT,1713758965,62,40.1629,-8.3327,50.11,5.28
103,Tôlanaro,1,MG,1713758966,86,-25.0319,46.9987,68.77,3.2
104,Saipan,19,MP,1713758966,74,15.1355,145.701,82.24,16.22
105,Margaret River,79,AU,1713758967,41,-33.95,115.0667,64.67,17.27
106,Bluefields,19,NI,1713758967,79,12.0137,-83.7635,77.43,5.73
107,Ayoun El Atrous,35,MR,1713758968,11,16.6614,-9.6149,85.08,9.62
108,Carutapera,100,BR,1713758968,95,-1.195,-46.02,76.59,3.65
109,Bethel,77,US,1713758969,78,41.3712,-73.414,35.83,3.42
110,Bredasdorp,33,ZA,1713758969,92,-34.5322,20.0403,57.34,5.68
111,Susuman,57,RU,1713758970,80,62.7833,148.1667,27.1,1.36
112,Boquira,100,BR,1713758970,76,-12.8231,-42.7306,73.78,6.85
113,Dori,5,BF,1713758971,50,14.0354,-0.0345,86.04,17.45
114,Savanna-la-Mar,1,JM,1713758971,87,18.219,-78.1332,75.25,2.3
115,Aasiaat,100,GL,1713758972,96,68.7098,-52.8699,29.57,3.62
116,Itoman,100,JP,1713758972,85,26.1247,127.6694,78.13,9.53
117,Port Mathurin,84,MU,1713758973,79,-19.6833,63.4167,80.4,15.52
118,Turabah,1,SA,1713758973,28,21.2141,41.6331,72.23,3.38
119,Saranac Lake,44,US,1713758688,86,44.3295,-74.1313,31.71,11.54
120,Nichinan,100,JP,1713758974,63,31.6,131.3667,75.43,0.67
121,Sabha,99,LY,1713758974,12,27.0377,14.4283,79.29,14.65
122,Chuzhou,1,CN,1713758975,54,32.3219,118.2978,73.81,7.63
123,Vylkove,100,UA,1713758976,87,45.4021,29.586,51.24,13.15
124,Rongelap,94,MH,1713758976,78,11.1635,166.8941,81.5,17.25
125,Kikwit,95,CD,1713758977,83,-5.041,18.8162,74.34,2.33
126,East London,100,ZA,1713758977,92,-33.0153,27.9116,73.0,17.18
127,Bima,100,ID,1713758978,88,-8.4667,118.7167,83.05,1.72
128,Ranst,65,BE,1713758978,83,51.19,4.5677,36.81,5.28
129,Al Qūşīyah,9,EG,1713758979,25,27.4402,30.8184,69.31,4.21
130,Alice Springs,100,AU,1713758979,34,-23.7,133.8833,74.48,18.54
131,Crane,93,US,1713758980,60,31.3974,-102.3501,56.32,8.03
132,Albertina,0,BR,1713758980,83,-22.2008,-46.6158,58.06,5.84
133,Tazacorte,100,ES,1713758981,71,28.629,-17.9293,67.64,7.16
134,Port Macquarie,79,AU,1713758981,56,-31.4333,152.9167,70.59,7.61
135,Katabu,97,ID,1713758982,80,-4.9333,122.5167,85.01,3.29
136,Puerto Baquerizo Moreno,28,EC,1713758982,92,-0.9,-89.6,75.6,10.83
137,Eastham,100,US,1713758983,63,41.8301,-69.9739,45.7,15.88
138,Dusa Marreb,100,SO,1713758983,67,5.535,46.3861,79.9,1.25
139,Pangkalanbuun,100,ID,1713758984,53,-2.6833,111.6167,91.78,3.18
140,Chibougamau,15,CA,1713758984,73,49.9168,-74.3659,5.18,10.02
141,Arraial do Cabo,0,BR,1713758985,75,-22.9661,-42.0278,73.42,16.49
142,Kaa-Khem,100,RU,1713758985,84,51.6833,94.7333,34.74,2.77
143,Mammoth Lakes,25,US,1713758986,78,37.6485,-118.9721,40.28,5.3
144,Vadsø,2,NO,1713758986,73,70.0744,29.7487,22.71,20.42
145,Weyburn,100,CA,1713758987,34,49.6668,-103.8511,52.45,10.8
146,Punta Arenas,88,CL,1713758987,83,-53.15,-70.9167,42.48,8.95
147,Wexford,81,IE,1713758988,79,52.3342,-6.4575,48.16,4.9
148,Margate,9,GB,1713758988,75,51.3813,1.3862,43.12,14.38
149,Praia da Vitória,100,PT,1713758989,91,38.7333,-27.0667,59.05,5.44
150,Dunedin,13,NZ,1713758776,58,-45.8742,170.5036,52.65,17.31
151,Ust-Nera,97,RU,1713758990,89,64.5667,143.2,33.3,2.59
152,Zapolyarnyy,63,RU,1713758990,91,69.4154,30.8136,7.23,7.18
153,Tinajo,84,ES,1713758991,76,29.0788,-13.7081,66.11,16.75
154,Severo-Yeniseyskiy,100,RU,1713758992,91,60.3725,93.0408,28.58,7.87
155,Weno,88,FM,1713758392,78,7.4515,151.8468,84.18,12.66
156,Tazovsky,93,RU,1713758993,91,67.4667,78.7,2.66,9.78
157,Touros,100,BR,1713758393,92,-5.1989,-35.4608,77.92,7.43
158,Castillos,100,UY,1713758394,98,-34.1667,-53.8333,62.4,11.5
159,Ati,12,TD,1713758395,13,13.2154,18.3353,83.91,8.14
160,Capitão Poço,100,BR,1713758396,97,-1.7464,-47.0594,74.71,2.33
161,Flin Flon,56,CA,1713758398,98,54.7682,-101.865,34.95,8.7
162,Lihue,39,US,1713758239,70,21.9789,-159.3672,72.54,14.92
163,Kapuskasing,75,CA,1713758399,72,49.4169,-82.4331,17.64,0.2
164,Skagen,23,DK,1713758400,64,57.7209,10.5839,37.08,14.25
165,Ambalangoda,99,LK,1713758401,70,6.2355,80.0538,85.78,4.9
166,Līsakovsk,31,KZ,1713758402,50,52.5369,62.4936,69.01,4.61
167,La Sarre,31,CA,1713758403,66,48.8002,-79.1996,14.95,7.43
168,Tiksi,100,RU,1713758405,94,71.6872,128.8694,22.59,13.11
169,Orivesi,81,FI,1713758406,88,61.6777,24.3572,20.44,9.89
170,Petropavlovsk-Kamchatskiy,27,RU,1713758408,75,53.0452,158.6483,36.01,3.74
171,Birao,35,CF,1713758409,52,10.2849,22.7882,80.1,3.91
172,Chernogorsk,100,RU,1713758410,59,53.8236,91.2842,53.73,18.92
173,Antsiranana,100,MG,1713758412,84,-12.2787,49.2917,79.18,10.25
174,Swakopmund,0,NA,1713758413,74,-22.6833,14.5333,63.19,4.18
175,Oranjemund,96,NA,1713758414,81,-28.55,16.4333,60.15,1.3
176,Idfu,0,EG,1713758414,21,24.9803,32.8747,75.22,5.66
177,Magadan,29,RU,1713758415,90,59.5667,150.8,30.99,2.86
178,Richards Bay,32,ZA,1713758416,95,-28.783,32.0377,68.63,7.16
179,Laojunmiao,0,CN,1713758417,19,39.8333,97.7333,46.81,6.62
180,Akbarābād,93,IR,1713758418,37,29.2464,52.7793,65.35,2.19
181,Hermanus,1,ZA,1713758419,84,-34.4187,19.2345,58.91,6.06
182,Dāmghān,64,IR,1713758420,22,36.1683,54.348,70.74,1.32
183,George Town,100,MY,1713758421,71,5.4112,100.3354,86.63,2.24
184,Laayoune,100,EH,1713758422,84,27.1622,-13.2032,62.42,6.13
185,Nova Sintra,96,CV,1713758423,71,14.8667,-24.7167,72.97,15.82
186,Mossamedes,63,AO,1713758424,73,-15.1961,12.1522,76.73,6.76
187,Afaahiti,33,PF,1713758424,76,-17.75,-149.2833,80.74,0.98
188,Beryozovo,15,RU,1713758425,68,63.9381,65.0419,13.33,6.89
189,Malango,51,ID,1713758426,54,-2.9627,119.9001,86.22,3.69
190,Mar del Plata,100,AR,1713758400,58,-38.0023,-57.5575,55.72,12.8
191,Anadyr,100,RU,1713758428,72,64.75,177.4833,19.18,8.37
192,Uturoa,29,PF,1713758429,70,-16.7333,-151.4333,83.91,2.86
193,Iqaluit,86,CA,1713758430,98,63.7506,-68.5145,-0.51,4.76
194,Vilyuchinsk,67,RU,1713758431,78,52.9306,158.4028,37.51,1.9
195,San Luis de la Loma,0,MX,1713758432,69,17.2706,-100.8939,76.51,1.07
196,Kristiansund,74,NO,1713758433,63,63.1115,7.732,39.7,6.38
197,Jamestown,4,US,1713758434,81,42.097,-79.2353,30.06,4.41
198,Turan,24,VN,1713758413,76,16.0678,108.2208,82.38,19.3
199,Pathein,52,MM,1713758435,44,16.7833,94.7333,95.11,12.82
200,Sho'rchi,99,UZ,1713758436,53,38.0141,67.7899,71.55,6.33
201,La Passe,1,FR,1713758437,85,45.5549,-0.8967,38.62,11.45
202,Karasburg,76,NA,1713758438,27,-28.0167,18.75,66.6,7.78
203,Mil’kovo,99,RU,1713758439,94,55.6078,37.7956,54.91,11.18
204,Villagarzón,100,CO,1713758440,97,1.0375,-76.6267,70.83,3.65
205,Ola,33,RU,1713758441,89,59.5833,151.2833,29.8,2.86
206,San Antonio de Palé,95,GQ,1713758443,79,-1.4014,5.6325,83.79,3.78
207,Sinop Province,0,TR,1713758443,62,41.7711,34.8709,53.11,12.39
208,Cabo San Lucas,0,MX,1713758428,61,22.8909,-109.9124,71.42,14.07
209,Nabire,68,ID,1713758445,69,-3.3667,135.4833,86.29,6.26
210,Hoopstad,76,ZA,1713758446,38,-27.8327,25.9083,61.97,6.93
211,Bela Vista,44,BR,1713758447,67,-22.1089,-56.5211,78.55,4.36
212,Avarua,43,CK,1713758448,74,-21.2078,-159.775,78.71,15.19
213,Igarka,100,RU,1713758449,87,67.4667,86.5833,12.33,6.67
214,Starkville,0,US,1713758409,76,33.4504,-88.8184,43.54,5.01
215,Örnsköldsvik,5,SE,1713758450,78,63.2909,18.7153,22.15,6.49
216,Salinas,9,US,1713758451,90,36.6777,-121.6555,52.0,2.77
217,Şalākhid,0,SY,1713758452,33,32.8727,36.5727,56.59,6.73
218,Enewetak,65,MH,1713758453,78,11.3474,162.3373,82.09,16.04
219,Karratha,1,AU,1713758454,28,-20.7377,116.8463,85.08,15.19
220,Tual,98,ID,1713758455,70,-5.6667,132.75,84.94,6.82
221,Island Harbour,89,GB,1713758456,82,50.724,-1.2758,40.08,7.96
222,Torghay,0,KZ,1713758457,44,49.6339,63.4981,69.76,16.08
223,Hithadhoo,89,MV,1713758457,71,-0.6,73.0833,84.65,3.33
224,Vikhorevka,99,RU,1713758458,55,56.1201,101.1636,38.53,9.22
225,Badger,58,US,1713758459,88,64.8,-147.5333,42.48,3.69
226,Pointe Michel,52,DM,1713758460,68,15.25,-61.3833,81.63,11.9
227,Yichang,80,CN,1713758416,62,30.7144,111.2847,73.65,3.96
228,Necochea,100,AR,1713758462,63,-38.5473,-58.7368,53.82,8.43
229,Aykhal,100,RU,1713758463,100,66.0,111.5,33.15,6.53
230,Cockburn Town,6,TC,1713758464,74,21.4612,-71.1419,78.1,19.55
231,Ancud,100,CL,1713758465,81,-41.8697,-73.8203,45.99,5.53
232,Mount Gambier,1,AU,1713758207,24,-37.8333,140.7667,72.97,7.45
233,Ghadames,82,LY,1713758466,34,30.1337,9.5007,70.34,11.68
234,Chak Five Hundred Seventy-five,73,PK,1713758468,23,31.55,73.8333,87.28,5.21
235,Tafresh,90,IR,1713758469,52,34.692,50.013,56.08,1.95
236,Udachny,100,RU,1713758470,100,66.4167,112.4,34.18,8.37
237,Belleville,5,CA,1713758471,83,44.1788,-77.3705,35.31,10.18
238,Nueva Esperanza,18,HN,1713758471,94,15.2667,-87.6,75.74,0.83
239,Laikit,61,ID,1713758472,73,1.4792,124.9735,85.12,1.86
240,Kingston,1,JM,1713758473,88,17.997,-76.7936,74.07,1.97
241,Greenville,100,US,1713758474,92,35.6127,-77.3663,48.43,8.1
242,Ålesund,100,NO,1713758475,63,62.4723,6.1549,40.91,5.41
243,Port Lincoln,3,AU,1713758476,38,-34.7333,135.8667,72.25,4.32
244,Katsuura,100,JP,1713758477,91,35.1333,140.3,61.27,17.38
245,Puerto Aisén,43,CL,1713758478,95,-45.4,-72.7,33.6,1.77
246,Leava,99,WF,1713758479,77,-14.3,-178.1667,84.47,8.16
247,Bol,41,TD,1713758481,41,13.4586,14.7147,82.44,10.74
248,Saint-François,8,FR,1713758482,96,46.4154,3.9054,26.92,5.08
249,Ogoja,100,NG,1713758483,87,6.6547,8.7976,77.9,6.49
250,Whitehorse,10,CA,1713758484,78,60.7161,-135.0538,38.5,6.6
251,Okehampton,64,GB,1713758485,79,50.7384,-4.0016,40.5,1.45
252,Argos,98,GR,1713758486,66,37.6333,22.7333,55.18,2.66
253,Galliano,0,US,1713758487,69,29.4422,-90.2992,60.19,13.29
254,Byron Bay,62,AU,1713758488,57,-28.65,153.6167,71.6,13.71
255,Coahuayana de Hidalgo,0,MX,1713758489,88,18.7,-103.6583,70.03,2.01
256,Hadibu,43,YE,1713758490,71,12.65,54.0333,82.58,2.42
257,Tobatí,56,PY,1713758491,76,-25.25,-57.0667,74.61,4.83
258,Krasnyy Chikoy,100,RU,1713758492,58,50.3643,108.7512,40.05,14.03
259,Qaryat Sulūq,100,LY,1713758493,26,31.6682,20.2521,75.09,22.06
260,Saint-Philippe,2,RE,1713758493,79,-21.3585,55.7679,79.68,3.62
261,Hammerfest,14,NO,1713758494,88,70.6634,23.6821,19.42,14.45
262,Maun,0,BW,1713758495,46,-19.9833,23.4167,64.35,5.99
263,Puerto San José,50,GT,1713758496,71,13.9256,-90.8244,84.43,4.41
264,Suvorov,100,RU,1713758497,80,54.1223,36.4966,47.7,12.08
265,Sungailiat,30,ID,1713758499,75,-1.85,106.1333,86.16,4.47
266,Guangyuan,100,CN,1713758500,69,32.442,105.823,68.43,3.91
267,Nemuro,95,JP,1713758501,92,43.3236,145.575,36.7,11.34
268,Walvis Bay,0,NA,1713758502,56,-22.9575,14.5053,66.92,9.13
269,Syanno,91,BY,1713758503,95,54.8106,29.7069,48.18,9.78
270,Adrar,0,MR,1713758504,23,20.5022,-10.0711,71.64,10.04
271,Turpan,0,CN,1713758505,12,42.9333,89.1667,82.69,12.21
272,Gornyye Klyuchi,100,RU,1713758506,45,45.25,133.5,65.53,3.44
273,Akureyri,90,IS,1713758507,64,65.6835,-18.0878,36.23,9.57
274,Dudinka,94,RU,1713758508,90,69.4058,86.1778,2.57,2.1
275,Coquimbo,100,CL,1713758508,78,-29.9533,-71.3436,61.72,2.98
276,Nuriootpa,0,AU,1713758509,15,-34.4833,139.0,77.02,8.48
277,Strezhevoy,85,RU,1713758510,81,60.7333,77.5889,26.02,14.72
278,Kosan,88,KP,1713758511,61,38.8558,127.4181,60.08,7.76
279,Oodweyne,100,SO,1713758512,68,9.4092,45.064,75.27,8.79
280,Khedbrahma,0,IN,1713758513,36,24.0333,73.05,86.11,6.46
281,Ulan-Ude,98,RU,1713758514,49,51.8261,107.6098,43.65,12.15
282,Gopālpur,77,IN,1713758515,52,19.2667,84.9167,91.71,8.57
283,Marau,0,BR,1713758516,87,-28.4492,-52.2,56.1,3.36
284,Kāzerūn,100,IR,1713758517,30,29.6195,51.6541,74.68,3.6
285,Edgewater,74,US,1713758518,83,28.9889,-80.9023,72.05,9.04
286,Sydney,45,AU,1713758242,57,-33.8679,151.2073,69.6,5.53
287,Rio Grande,98,BR,1713758519,86,-32.035,-52.0986,67.17,5.39
288,Okhotsk,100,RU,1713758521,87,59.3833,143.3,32.99,6.08
289,Olovyannaya,100,RU,1713758522,99,50.95,115.5667,35.98,16.91
290,Vuktyl,100,RU,1713758523,57,63.8567,57.3094,17.26,11.25
291,Vorgashor,98,RU,1713758524,93,67.5833,63.95,5.94,10.42
292,Yemva,99,RU,1713758525,75,62.59,50.8594,31.62,6.53
293,São Félix do Xingu,98,BR,1713758526,98,-6.6447,-51.995,72.72,1.5
294,Taroa,100,MH,1713758527,79,8.7058,171.2275,82.67,17.6
295,Korla,0,CN,1713758527,19,41.7597,86.1469,73.15,5.03
296,Fortuna,100,US,1713758529,97,40.5982,-124.1573,44.82,4.23
297,Rome,46,US,1713758530,85,43.2128,-75.4557,33.6,5.57
298,Whittlesea,100,ZA,1713758531,38,-32.1759,26.8244,65.82,4.94
299,Smithers,98,CA,1713758408,72,54.7804,-127.1743,41.49,5.95
300,Minas de Marcona,38,PE,1713758533,84,-15.2119,-75.1103,62.04,7.9
301,Papao,6,PF,1713758534,74,-17.75,-149.55,83.16,2.46
302,Labytnangi,18,RU,1713758535,80,66.6572,66.4183,7.7,7.02
303,Tsiombe,0,MG,1713758536,90,-25.3,45.4833,65.61,1.41
304,Egilsstadir,82,IS,1713758537,53,65.2653,-14.3948,38.57,5.5
305,Östersund,76,SE,1713758537,98,63.1792,14.6357,13.05,3.04
306,Maralal,100,KE,1713758538,89,1.0968,36.698,61.39,2.28
307,Poletayevo,100,RU,1713758539,75,55.0336,61.1138,57.25,9.28
308,Fenoarivo Be,0,MG,1713758540,80,-18.4333,46.5667,65.37,2.93
309,Hastings,8,GB,1713758541,88,50.8552,0.5729,39.34,14.88
310,Sovetskiy,89,RU,1713758542,80,61.3614,63.5842,30.99,10.09
311,Linares,94,CL,1713758543,70,-35.85,-71.6,59.25,14.38
312,Arrondissement de Nevers,3,FR,1713758544,95,46.9167,3.3333,28.8,4.56
313,Ukholovo,99,RU,1713758545,87,53.7929,40.4892,57.94,11.01
314,Songling,99,CN,1713758546,73,31.1933,120.7176,64.63,4.81
315,Malye Derbety,19,RU,1713758546,58,47.9547,44.6808,58.33,16.8
316,Nyurba,100,RU,1713758547,99,63.2842,118.3319,33.57,4.34
317,Olindina,75,BR,1713758548,98,-11.3667,-38.3333,73.51,5.08
318,Horta,100,PT,1713758549,78,38.5333,-28.6333,59.56,9.28
319,Jamaame,100,SO,1713758551,91,0.0697,42.745,77.05,6.24
320,Gatton,23,AU,1713758466,63,-27.55,152.2833,71.69,11.65
321,Pogar,100,RU,1713758552,89,52.554,33.2591,43.36,16.64
322,Noumea,100,NC,1713758423,84,-22.2763,166.4572,75.24,15.41
323,Giohar,100,SO,1713758554,80,2.7809,45.5005,78.58,6.08
324,Harstad,0,NO,1713758555,61,68.799,16.5293,27.21,10.49
325,Greymouth,84,NZ,1713758556,76,-42.4667,171.2,57.27,1.72
326,Boende,33,CD,1713758557,78,-0.2167,20.8667,72.34,2.82
327,Yambio,69,SS,1713758558,82,4.5721,28.3955,67.42,4.21
328,Béchar,6,DZ,1713758558,64,31.6167,-2.2167,55.56,6.87
329,Prainha,100,BR,1713758559,98,-1.8,-53.48,74.97,2.93
330,Hokuto,81,JP,1713758560,45,41.8848,140.639,58.77,3.83
331,Chinde,23,NP,1713758561,23,26.8418,88.0763,81.32,8.1
332,Tot'ma,100,RU,1713758562,65,59.9747,42.7642,48.87,12.68
333,Farim,33,GW,1713758563,65,12.4839,-15.2217,70.07,1.9
334,Safonovo,95,RU,1713758564,91,55.15,33.2167,50.13,10.04
335,Picos,100,BR,1713758565,71,-7.0769,-41.4669,78.6,1.9
336,Sonoma,4,US,1713758566,85,38.55,-122.9011,57.85,0.89
337,Yuzhno-Kurilsk,100,RU,1713758566,93,44.0306,145.8556,37.42,8.81
338,Tabou,96,CI,1713758567,90,4.423,-7.3528,79.02,6.11
339,Mili,51,MH,1713758568,83,6.0815,171.735,83.14,17.92
340,Assafarge,56,PT,1713758569,63,40.1525,-8.4381,52.02,5.37
341,Kourou,98,GF,1713758570,94,5.1552,-52.6478,76.44,0.96
342,Pontianak,97,ID,1713758571,69,-0.0333,109.3333,87.64,2.55
343,Cologne,72,DE,1713758572,64,50.9333,6.95,37.04,1.34
344,Aban,100,RU,1713758573,99,56.67,96.06,32.5,12.71
345,Nelson Bay,84,AU,1713758573,55,-32.7167,152.15,70.68,7.09
346,Chernomorskoye,92,UA,1713758574,83,45.5039,32.6997,51.96,8.63
347,Lorengau,100,PG,1713758575,64,-2.0226,147.2712,86.43,8.16
348,Saint-Paul,0,RE,1713758576,76,-21.0096,55.2707,80.24,1.28
349,Sambava,69,MG,1713758577,91,-14.2667,50.1667,77.25,6.17
350,Alma,100,CA,1713758578,68,48.5501,-71.6491,22.75,14.85
351,Todos Santos,0,MX,1713758579,66,23.45,-110.2167,69.91,5.95
352,Ouezzane,0,MA,1713758580,78,34.7971,-5.5822,48.88,4.41
353,Ishigaki,90,JP,1713758581,82,24.3448,124.1572,80.44,16.71
354,Kargasok,95,RU,1713758582,78,59.0556,80.8572,33.57,17.78
355,Saint-Pierre,4,RE,1713758583,79,-21.3393,55.4781,79.59,3.29
356,Tindouf,23,DZ,1713758584,79,27.6711,-8.1474,57.0,8.34
357,Fort Bragg,100,US,1713758585,90,35.139,-79.006,50.0,5.41
358,Choibalsan,100,MN,1713758586,53,48.0667,114.5,44.35,16.04
359,Mossel Bay,15,ZA,1713758586,92,-34.1831,22.146,60.26,8.63
360,Great Falls,76,US,1713758541,50,47.5002,-111.3008,41.92,12.44
361,Ta`ū,88,AS,1713758588,76,-14.2336,-169.5144,84.22,13.31
362,Alness,100,GB,1713758589,85,57.696,-4.2551,48.25,3.36
363,Al Jawf,0,SA,1713758590,34,29.5,38.75,64.35,11.43
364,Sechura,75,PE,1713758591,74,-5.5569,-80.8222,74.3,9.93
365,Merced,28,US,1713758377,62,37.1666,-120.7516,67.96,3.83
366,Buta,39,CD,1713758592,91,2.7858,24.73,69.44,1.92
367,Tura,96,IN,1713758593,28,25.5198,90.2201,94.3,7.07
368,Lincoln City,56,US,1713758595,86,44.9582,-124.0179,45.39,9.73
369,Dalandzadgad,100,MN,1713758596,55,43.5708,104.425,37.13,15.01
370,Qui Nhon,54,VN,1713758597,61,13.7667,109.2333,89.51,14.88
371,Bodø,0,NO,1713758598,64,67.28,14.405,30.88,16.06
372,Hasaki,100,JP,1713758598,73,35.7333,140.8333,62.11,12.41
373,Queenstown,100,ZA,1713758589,38,-31.8976,26.8753,65.3,3.89
374,Khandyga,68,RU,1713758600,77,62.6667,135.6,41.74,4.32
375,Barcelos,12,PT,1713758601,73,41.5388,-8.6151,55.76,5.95
376,Anzio,18,IT,1713758602,69,41.4853,12.6179,52.97,14.16
377,Bay City,35,US,1713758542,67,43.5945,-83.8889,39.49,6.85
378,Singtam,32,IN,1713758604,25,27.2333,88.5,90.39,4.81
379,Ar Ruseris,19,SD,1713758605,48,11.8659,34.3869,84.25,6.85
380,Zavetnoye,53,RU,1713758606,67,47.1194,43.8903,54.77,14.25
381,Halifax,100,CA,1713758566,88,44.6453,-63.5724,39.51,7.07
382,Bandon,52,IE,1713758608,87,51.7469,-8.7425,44.17,3.53
383,Portland,19,US,1713758983,62,45.5234,-122.6762,49.78,5.14
384,Melekeok Village,95,PW,1713758610,74,7.4957,134.6367,85.17,16.89
385,Klaksvík,100,FO,1713758611,81,62.2266,-6.589,44.01,14.63
386,Chamdo,99,CN,1713758611,35,31.1667,97.2333,47.21,2.59
387,Rémire-Montjoly,88,GF,1713758612,88,4.9167,-52.2667,78.4,2.46
388,Distrikt Brokopondo,99,SR,1713758613,91,4.75,-55.1667,76.86,4.97
389,Nadvoitsy,100,RU,1713758614,94,63.8667,34.3167,24.93,12.55
390,Daru,59,PG,1713758615,73,-9.0763,143.2092,86.09,8.34
391,Jiagedaqi,100,CN,1713758616,32,50.4167,124.1167,69.13,15.59
392,Bata,100,GQ,1713758617,85,1.8639,9.7658,80.76,1.9
393,Hongwŏn,62,KP,1713758618,58,40.0253,127.9558,56.61,8.14
394,Dzhezkazgan,0,KZ,1713758619,36,47.7833,67.7667,66.47,19.15
395,Kīevka,0,KZ,1713758620,44,50.2619,71.5514,68.25,7.0
396,Mendi,76,PG,1713758621,91,-6.1761,143.6513,66.52,4.05
397,Prince Rupert,100,CA,1713758622,92,54.3161,-130.3201,42.3,5.17
398,Wagar,28,SD,1713758623,51,16.1525,36.2032,78.6,7.9
399,Enshi,100,CN,1713758623,77,30.3,109.4833,67.93,2.28
400,Posse,82,BR,1713758624,68,-14.0931,-46.3694,72.52,9.48
401,Sinabang,100,ID,1713758625,70,2.4803,96.3801,86.94,3.98
402,Alcaudete,1,ES,1713758626,78,37.5909,-4.0824,50.72,3.11
403,Upata,79,VE,1713758627,80,8.0086,-62.3989,74.05,7.05
404,Bayındır,63,TR,1713758628,88,38.2174,27.6474,52.14,2.86
405,Kotelnikowo,55,RU,1713758629,70,47.6317,43.1461,54.01,12.15
406,Santa Maria,86,BR,1713758630,83,-29.6842,-53.8069,65.66,3.53
407,Bubaque,99,GW,1713758631,73,11.2833,-15.8333,76.23,13.82
408,La Ronge,19,CA,1713758632,90,55.1001,-105.2842,35.33,6.17
409,Fort McMurray,88,CA,1713758633,49,56.7268,-111.381,45.46,2.89
410,Iquique,15,CL,1713758634,86,-20.2208,-70.1431,67.06,3.02
411,Timaru,25,NZ,1713758635,48,-44.4,171.25,58.12,21.05
412,Mugia,1,ES,1713758636,59,43.1041,-9.2179,54.18,24.65
413,Ndjolé,100,GA,1713758637,99,-0.1783,10.7649,76.68,1.16
414,Waingapu,100,ID,1713758638,80,-9.6567,120.2641,81.64,12.1
415,Saint-Joseph,3,RE,1713758639,79,-21.3667,55.6167,78.58,3.27
416,Howard Springs,51,AU,1713758640,38,-12.497,131.047,89.65,7.45
417,Muhafazat Ta`izz,69,YE,1713758640,70,13.5,44.0,70.68,0.58
418,Constitución,100,CL,1713758641,82,-35.3333,-72.4167,59.85,21.39
419,Carloforte,28,IT,1713758642,66,39.145,8.3058,55.45,12.8
420,Suntar,100,RU,1713758643,92,62.1444,117.6319,37.26,4.76
421,Arvayheer,55,MN,1713758644,30,46.2639,102.775,35.56,14.94
422,Yerofey Pavlovich,100,RU,1713758645,97,53.9667,121.9667,34.41,9.19
423,Bujaru,100,BR,1713758646,99,-1.515,-48.0447,74.35,0.98
424,Bac Lieu,100,VN,1713758647,55,9.285,105.7244,89.91,11.32
425,São João da Barra,0,BR,1713758647,76,-21.6403,-41.0511,71.44,5.86
426,Mejit,99,MH,1713758648,78,10.2753,170.8646,82.22,17.34
427,Kotapārh,75,IN,1713758649,31,19.15,82.35,95.22,8.52
428,Chos Malal,52,AR,1713758650,55,-37.3781,-70.2709,48.97,6.31
429,Kāsaragod,25,IN,1713758651,57,12.5,75.0,91.42,3.89
430,Labrador City,78,CA,1713758652,77,52.9463,-66.9114,25.36,9.6
431,Letlhakeng,0,BW,1713758653,41,-24.0944,25.0298,65.05,5.1
432,Baiyin,81,CN,1713758654,25,36.5583,104.2081,61.56,11.59
433,Kuala Belait,70,BN,1713758654,61,4.5833,114.1833,87.85,4.34
434,Nguigmi,80,NE,1713758655,17,14.2495,13.1092,84.83,9.46
435,Kununurra,10,AU,1713758656,22,-15.7667,128.7333,88.63,12.53
436,Tosontsengel,69,MN,1713758657,35,48.7567,98.2839,34.03,17.27
437,Kruisfontein,100,ZA,1713758658,94,-34.0033,24.7314,62.83,10.31
438,Amontada,100,BR,1713758659,96,-3.3617,-39.8317,74.89,3.18
439,Mazamari,86,PE,1713758660,88,-11.3258,-74.5308,71.96,1.7
440,Broek op Langedijk,100,NL,1713758661,78,52.6742,4.8056,38.39,7.23
441,Lüderitz,41,NA,1713758662,64,-26.6481,15.1594,63.52,7.05
442,Monrovia,100,LR,1713758471,86,6.3005,-10.7969,80.38,6.53
443,Conception Bay South,50,CA,1713758663,93,47.4999,-52.9981,35.65,2.19
444,Mont-Dore,100,NC,1713758664,88,-22.2833,166.5833,74.1,9.71
445,Verkhnevilyuysk,100,RU,1713758665,98,63.4453,120.3167,34.03,4.88
446,Norderney,100,DE,1713758666,62,53.7,7.15,43.21,16.98
447,Baidoa,100,SO,1713758667,83,3.1138,43.6498,73.9,8.86
448,Bull Savanna,0,JM,1713758668,83,17.8868,-77.5902,74.57,7.02
449,McCook,0,US,1713758669,62,40.2019,-100.6257,48.69,13.13
450,Tocopilla,5,CL,1713758670,81,-22.092,-70.1979,68.29,4.07
451,Tralee,77,IE,1713758670,92,52.2704,-9.7026,47.01,1.54
452,Finisterra,7,ES,1713758671,50,42.9049,-9.2629,55.62,21.12
453,Ibarreta,77,AR,1713758672,64,-25.2144,-59.8585,81.57,8.12
454,Cles,100,IT,1713758673,96,46.3667,11.0333,34.93,3.51
455,Taoudenni,0,ML,1713758674,15,22.6783,-3.9836,77.14,8.5
456,Kirakira,97,SB,1713758675,77,-10.4544,161.9205,84.58,3.42
457,Elele,97,NG,1713758676,91,5.1009,6.8141,77.58,3.29
458,São João do Piauí,62,BR,1713758677,79,-8.3581,-42.2467,75.07,2.68
459,Emerald,10,AU,1713758677,39,-23.5333,148.1667,81.73,18.79
460,Kerikeri,79,NZ,1713758678,58,-35.2268,173.9474,66.81,7.34
461,Kogalym,80,RU,1713758679,85,62.2654,74.4791,11.5,19.26
462,Rumoi,100,JP,1713758681,90,43.9344,141.6428,43.72,9.69
463,Malpe,47,IN,1713758682,63,13.35,74.7167,88.74,6.42
464,Lusambo,47,CD,1713758683,97,-4.9667,23.45,71.28,1.12
465,Naliya,0,IN,1713758684,46,23.2667,68.8333,85.42,14.5
466,Mount Isa,6,AU,1713758685,24,-20.7333,139.5,81.95,18.32
467,La Sierpe,100,CO,1713758686,96,2.8518,-77.6155,74.44,5.37
468,Mahina,5,PF,1713758687,78,-17.5065,-149.489,82.27,4.16
469,Mlowo,3,TZ,1713758687,96,-9.0,32.9833,57.87,2.77
470,Rakops,0,BW,1713758688,41,-21.0167,24.3333,67.64,5.48
471,Homer,100,US,1713758689,99,59.6425,-151.5483,35.69,2.3
472,Sitka,99,US,1713758597,91,57.0531,-135.33,45.48,4.61
473,Bargi,100,IN,1713758691,32,22.9833,79.8667,88.75,7.49
474,Flying Fish Cove,64,CX,1713758692,84,-10.4217,105.6791,81.77,17.72
475,Puerto Lempira,29,HN,1713758693,85,15.2667,-83.7667,78.35,6.91
476,Tomatlán,0,MX,1713758693,89,19.9333,-105.25,66.74,0.92
477,Nantucket,100,US,1713758576,61,41.2835,-70.0995,47.62,16.8
478,Adi Keyh,11,ER,1713758695,37,14.8444,39.3772,60.22,3.98
479,Rasht,81,IR,1713758696,70,37.2808,49.5832,67.39,6.31
480,Saldanha,28,ZA,1713758697,93,-33.0117,17.9442,57.63,5.66
481,Międzyzdroje,100,PL,1713758698,64,53.9292,14.451,37.29,16.4
482,Luanda,100,AO,1713758406,89,-8.8368,13.2343,78.21,6.13
483,Vikulovo,53,RU,1713758699,54,56.8167,70.6107,50.32,12.39
484,Natal,100,BR,1713758700,89,-5.795,-35.2094,78.62,6.29
485,Rawson,100,AR,1713758701,60,-43.3002,-65.1023,48.83,6.89
486,Menderes,58,TR,1713758702,92,38.2496,27.1343,53.65,4.0
487,Urengoy,100,RU,1713758703,89,65.9667,78.3667,1.58,13.04
488,Merizo Village,3,GU,1713758704,71,13.2658,144.6691,82.69,16.93
489,As Sulayyil,33,SA,1713758705,14,20.4607,45.5779,85.03,8.23
490,Nova Viçosa,4,BR,1713758706,88,-17.8919,-39.3719,75.43,4.92
491,Alindao,100,CF,1713758707,90,5.0267,21.2088,73.62,2.93
492,Concordia,100,AR,1713758707,95,-31.393,-58.0209,68.13,5.66
493,Benguela,10,AO,1713758708,81,-12.5763,13.4055,78.67,2.21
494,Copala,1,MX,1713758709,66,16.65,-98.9833,77.16,0.83
495,Arteche,73,PH,1713758710,87,12.2645,125.4048,82.51,6.02
496,Puerto Deseado,0,AR,1713758711,64,-47.7503,-65.8938,43.61,10.38
497,Campechuela,1,CU,1713758712,76,20.2342,-77.2789,77.29,4.79
498,Grand Falls-Windsor,10,CA,1713758714,88,48.9332,-55.6649,33.82,3.89
499,Berdigestyakh,100,RU,1713758714,98,62.0989,126.6992,33.01,6.73
500,Keflavik,75,IS,1713758715,80,64.0049,-22.5624,41.56,4.74
501,Kavarna,76,BG,1713758716,85,43.4333,28.3333,49.42,22.3
502,Vernon,80,CA,1713758717,74,50.2581,-119.2691,42.06,1.79
503,Miles City,100,US,1713758719,67,46.4083,-105.8406,50.4,21.65
504,Ābādān,64,IR,1713758720,31,30.3392,48.3043,82.62,2.93
505,Huadian,74,CN,1713758720,42,42.9633,126.7478,70.32,10.0
506,Nouadhibou,21,MR,1713758721,85,20.931,-17.0347,65.39,20.4
507,Leiston,6,GB,1713758722,86,52.2061,1.5776,36.64,8.61
508,Kittilä,96,FI,1713758724,97,67.6647,24.8936,12.0,1.05
509,Lubango,70,AO,1713758726,58,-14.9172,13.4925,61.5,3.44
510,Hofors,95,SE,1713758726,82,60.5457,16.2867,24.8,8.55
511,Nadi,79,FJ,1713758727,72,-17.8,177.4167,85.8,8.66
512,Cherdyn',25,RU,1713758728,66,60.403,56.4787,39.74,6.51
513,Dunkwa,100,GH,1713758729,95,5.9656,-1.78,77.05,2.26
514,Leichlingen,86,DE,1713758730,69,51.1167,7.0167,37.02,2.3
515,Sretensk,100,RU,1713758731,86,52.2453,117.7093,41.27,8.39
516,Agropoli,0,IT,1713758732,81,40.3469,14.9966,48.04,5.73
517,Uruaçu,48,BR,1713758732,76,-14.5247,-49.1408,71.92,2.46
518,Vanimo,39,PG,1713758733,69,-2.6741,141.3028,86.47,9.28
519,Potsdam,37,DE,1713758503,86,52.3989,13.0657,28.45,4.32
520,Happy Valley-Goose Bay,100,CA,1713758735,95,53.3168,-60.3315,36.48,2.15
521,Yanchep,84,AU,1713758736,53,-31.55,115.6833,72.99,17.18
522,Bodden Town,0,KY,1713758737,71,19.2833,-81.25,79.23,6.42
523,Mörön,79,MN,1713758738,29,49.6342,100.1625,41.58,18.45
524,Campbellsville,22,US,1713758739,77,37.3434,-85.3419,38.03,4.94
525,Namsos,75,NO,1713758740,70,64.4662,11.4957,31.77,7.07
526,Kupang,100,ID,1713758740,62,-10.1667,123.5833,86.38,11.25
527,Bluefield,76,US,1713758741,70,37.2698,-81.2223,37.78,6.69
528,Nobres,100,BR,1713758742,93,-14.7203,-56.3275,74.07,3.78
529,Juba,67,SS,1713758743,80,4.8517,31.5825,72.63,4.59
530,Dien Bien Phu,35,VN,1713758744,19,21.3833,103.0167,100.33,5.37
531,Thetford-Mines,69,CA,1713758745,97,46.0937,-71.3054,31.59,12.1
532,Las Lomitas,87,AR,1713758746,66,-24.7096,-60.593,81.14,8.61
533,Shawano,3,US,1713758747,74,44.7822,-88.609,38.88,3.13
534,Salalah,12,OM,1713758747,75,17.0151,54.0924,80.85,4.59
535,Mpulungu,64,ZM,1713758748,83,-8.7623,31.1141,72.39,6.82
536,Mundri,100,ID,1713758749,91,-6.9558,111.71,78.35,1.74
537,Tarawa,56,KI,1713758750,80,1.419,172.984,83.71,11.99
538,Egersund,3,NO,1713758751,66,58.4513,5.9997,38.25,5.1
539,Varva,100,UA,1713758752,89,50.495,32.7197,41.79,17.9
540,Lā‘ie,24,US,1713758753,73,21.6477,-157.9253,73.24,16.58
541,Aral,82,CN,1713758754,18,40.5156,81.2636,74.53,2.39
542,Moshkovo,100,RU,1713758755,75,55.3053,83.6104,41.23,13.62
543,Bijie,100,CN,1713758756,85,27.3125,105.2942,55.74,4.03
544,Bangassou,81,CF,1713758757,96,4.7413,22.8184,69.51,2.21
545,Sirte,100,LY,1713758758,80,31.2089,16.5887,66.45,8.34
546,Krivosheino,100,RU,1713758759,76,57.3431,83.9261,37.26,15.5
547,Trancas,97,AR,1713758760,86,-26.2314,-65.2803,70.41,1.32
548,Banamba,51,ML,1713758760,58,13.55,-7.45,82.54,13.69
549,Sungai Raya,62,ID,1713758761,67,0.7,108.9,88.5,4.29
550,Islamorada,7,US,1713758763,70,24.9243,-80.6278,77.4,6.02
551,Polyarny,56,RU,1713758764,88,69.1989,33.4478,9.07,11.01
552,Lagoa,100,PT,1713758765,77,39.05,-27.9833,58.75,8.72
553,Hirara,81,JP,1713758766,87,24.8,125.2833,78.53,15.77
554,Belyy Yar,99,RU,1713758767,65,53.6039,91.3903,52.99,23.67
555,Nurota,6,UZ,1713758768,28,40.5614,65.6886,77.58,7.11
556,Ōdachō-ōda,100,JP,1713758768,80,35.1833,132.5,64.09,13.67
557,Ruska Poliana,100,UA,1713758769,77,49.417,31.9201,42.96,14.07
558,Shizunai-furukawachō,12,JP,1713758770,69,42.3339,142.3669,50.81,6.96
559,Agenebode,100,NG,1713758772,88,7.106,6.6966,79.05,2.89
560,Marquette,15,US,1713758773,77,46.5333,-87.6335,31.75,5.44
561,Ketchikan,96,US,1713759162,91,55.3422,-131.6461,46.38,5.44
562,Āstāneh-ye Ashrafīyeh,75,IR,1713758774,83,37.2596,49.9444,65.97,6.04
563,Sakakah,4,SA,1713758775,44,29.9697,40.2064,70.0,3.36
564,Quibdó,98,CO,1713758776,99,5.6947,-76.6611,73.89,0.85
565,Gao,3,ML,1713758777,10,16.6362,1.637,84.36,9.57
566,Victorica,100,AR,1713758778,95,-36.2151,-65.4359,54.84,14.9
567,Swabi,27,PK,1713758779,50,34.1199,72.4699,74.73,1.57
568,Matsue,100,JP,1713758780,74,35.4722,133.0506,61.83,9.13
569,Al Bawīţī,17,EG,1713758780,53,28.3492,28.8659,64.36,7.45
570,Pacasmayo,97,PE,1713758782,83,-7.4006,-79.5714,70.12,8.5
571,Kattivākkam,90,IN,1713758782,58,13.2167,80.3167,90.01,12.21
572,Grande Prairie,100,CA,1713758608,44,55.1667,-118.8027,48.4,18.61
573,Pimampiro,100,EC,1713758784,93,0.4,-77.9667,60.93,1.34
574,Chaiya,100,TH,1713758785,53,9.3862,99.1986,91.78,6.93
575,Ouadda,94,CF,1713758786,69,8.0777,22.4007,72.99,2.48
576,Bonthe,92,SL,1713758787,91,7.5264,-12.505,79.39,5.66
577,Turuvekere,48,IN,1713758788,43,13.1642,76.6667,87.49,3.31
578,Mawlaik,100,MM,1713758789,27,23.6333,94.4167,97.77,2.53
579,Al Jumūm,0,SA,1713758790,26,21.6169,39.6981,79.47,4.43
580,Opuwo,0,NA,1713758790,37,-18.0607,13.84,66.54,4.59
581,Sokcho,87,KR,1713758791,72,38.2083,128.5911,58.26,7.09
582,Ayacucho,28,PE,1713758792,80,-13.1583,-74.2239,50.95,0.98
583,Troitsko-Pechorsk,100,RU,1713758793,74,62.7084,56.1964,26.56,7.96
584,Holualoa,39,US,1713758794,75,19.6228,-155.9522,72.55,2.55
585,Dwārka,0,IN,1713758795,63,22.2394,68.9678,82.02,12.44
586,Stiens,100,NL,1713758796,83,53.2623,5.7577,39.7,10.18
587,Nainpur,100,IN,1713758797,46,22.4333,80.1167,80.44,5.28
588,Bedelē,21,ET,1713758797,85,8.456,36.353,58.41,1.52
589,Shingū,100,JP,1713758798,89,33.7333,135.9833,64.02,8.12
590,Diyarbakır,7,TR,1713758799,73,37.9158,40.2189,55.58,3.09
591,Hancheng,79,CN,1713758800,47,32.5186,112.3522,78.24,5.23
592,Chonchi,100,CL,1713758801,89,-42.6128,-73.8092,42.21,1.23
593,Yinchuan,2,CN,1713758802,15,38.4681,106.2731,68.23,10.76
